{"class":"VERSION","release":"3.23.1","rev":"3.23.1","proto_major":3,"proto_minor":14}
{"class":"DEVICES","devices":[{"class":"DEVICE","path":"/dev/ttyACM0","driver":"u-blox","subtype":"SW EXT CORE 1.00 (a4f107),HW 00190000","subtype1":"ROM BASE 0x118B2060,FWVER=LAP 1.20,PROTVER=30.20,MOD=ZED-F9K,GPS;GLO;GAL;BDS,SBAS;QZSS","activated":"2025-03-21T05:44:46.619Z","flags":1,"native":1,"bps":460800,"parity":"N","stopbits":1,"cycle":1.00,"mincycle":0.02},{"class":"DEVICE","path":"/dev/pps2","driver":"PPS","activated":"2025-03-21T05:44:46.000Z"}]}
{"class":"WATCH","enable":true,"json":false,"nmea":true,"raw":0,"scaled":false,"timing":false,"split24":false,"pps":false}
$GPZDA,054446.70,21,03,2025,00,00*63
$GPGGA,054446.70,3724.4028,N,12706.1156,E,1,11,0.85,93.29,M,22.179,M,,*52
$GPRMC,054446.70,A,3724.4028,N,12706.1156,E,0.0058,59.286,210325,-8.5,W*6D
$GPGSA,A,3,1,2,3,8,17,22,30,,,,,,1.8,0.8,1.6*39
$GPGBS,054446.70,8.115,9.794,6.145,,,,*49
$GPZDA,054446.80,21,03,2025,00,00*6C
$GPGGA,054446.80,3724.4028,N,12706.1156,E,1,11,0.85,93.29,M,22.179,M,,*5D
$GPRMC,054446.80,A,3724.4028,N,12706.1156,E,0.0058,59.286,210325,-8.5,W*62
$GPGSA,A,3,1,2,3,8,17,22,30,,,,,,1.8,0.8,1.6*39
$GPGBS,054446.80,8.115,9.794,6.145,,,,*46
$GPZDA,054446.90,21,03,2025,00,00*6D
$GPGGA,054446.90,3724.4028,N,12706.1156,E,1,11,0.85,93.29,M,22.179,M,,*5C
$GPRMC,054446.90,A,3724.4028,N,12706.1156,E,0.0058,59.286,210325,-8.5,W*63
$GPGSA,A,3,1,2,3,8,17,22,30,,,,,,1.8,0.8,1.6*39
$GPGBS,054446.90,8.115,9.794,6.145,,,,*47
$GPZDA,054447.00,21,03,2025,00,00*65
$GPGGA,054447.00,3724.4028,N,12706.1156,E,1,11,0.85,93.29,M,22.179,M,,*54
$GPRMC,054447.00,A,3724.4028,N,12706.1156,E,0.0058,59.286,210325,-8.5,W*6B
$GPGSA,A,3,1,2,3,8,17,22,30,,,,,,1.8,0.8,1.6*39
$GPGBS,054447.00,8.115,9.794,6.145,,,,*4F
$GPZDA,054447.10,21,03,2025,00,00*64
$GPGGA,054447.10,3724.4028,N,12706.1156,E,1,11,0.85,93.28,M,22.179,M,,*54
$GPRMC,054447.10,A,3724.4028,N,12706.1156,E,0.0058,59.286,210325,-8.5,W*6A
$GPGSA,A,3,1,2,3,8,17,22,30,,,,,,1.8,0.8,1.6*39
$GPGBS,054447.10,8.115,9.794,6.145,,,,*4E
$GPZDA,054447.20,21,03,2025,00,00*67
$GPGGA,054447.20,3724.4028,N,12706.1156,E,1,11,0.85,93.28,M,22.179,M,,*57
$GPRMC,054447.20,A,3724.4028,N,12706.1156,E,0.0058,59.286,210325,-8.5,W*69
$GPGSA,A,3,1,2,3,8,17,22,30,,,,,,1.8,0.8,1.6*39
$GPGBS,054447.20,8.115,9.794,6.145,,,,*4D
$GPGSV,5,1,20,01,59,042,42,02,35,048,39,03,49,124,44,06,07,235,17*7A
$GPGSV,5,2,20,07,05,197,18,08,17,094,34,14,69,286,22,17,48,308,28*71
$GPGSV,5,3,20,19,20,289,00,22,50,309,32,30,19,227,24,67,06,025,00*70
$GPGSV,5,4,20,68,17,071,32,69,09,118,41,73,35,185,25,74,65,251,23*70
$GPGSV,5,5,20,75,31,323,36,83,18,046,00,84,60,334,23,85,29,265,00*74
$GPZDA,054447.30,21,03,2025,00,00*66
$GPGGA,054447.30,3724.4028,N,12706.1156,E,1,11,0.85,93.32,M,22.179,M,,*5D
$GPRMC,054447.30,A,3724.4028,N,12706.1156,E,0.0078,59.286,210325,-8.5,W*6A
$GPGSA,A,3,1,2,3,8,17,22,30,,,,,,1.8,0.8,1.6*39
$GPGBS,054447.30,8.115,9.794,6.128,,,,*47
$GPZDA,054447.40,21,03,2025,00,00*61
$GPGGA,054447.40,3724.4028,N,12706.1156,E,1,11,0.85,93.32,M,22.179,M,,*5A
$GPRMC,054447.40,A,3724.4028,N,12706.1156,E,0.0058,59.286,210325,-8.5,W*6F
$GPGSA,A,3,1,2,3,8,17,22,30,,,,,,1.8,0.8,1.6*39
$GPGBS,054447.40,8.115,9.794,6.128,,,,*40
$GPZDA,054447.50,21,03,2025,00,00*60
$GPGGA,054447.50,3724.4028,N,12706.1156,E,1,11,0.85,93.31,M,22.179,M,,*58
$GPRMC,054447.50,A,3724.4028,N,12706.1156,E,0.0058,59.286,210325,-8.5,W*6E
$GPGSA,A,3,1,2,3,8,17,22,30,,,,,,1.8,0.8,1.6*39
$GPGBS,054447.50,8.115,9.794,6.128,,,,*41
$GPZDA,054447.60,21,03,2025,00,00*63
$GPGGA,054447.60,3724.4028,N,12706.1156,E,1,11,0.85,93.31,M,22.179,M,,*5B
$GPRMC,054447.60,A,3724.4028,N,12706.1156,E,0.0039,59.286,210325,-8.5,W*6A
$GPGSA,A,3,1,2,3,8,17,22,30,,,,,,1.8,0.8,1.6*39
$GPGBS,054447.60,8.115,9.794,6.128,,,,*42
$GPZDA,054447.70,21,03,2025,00,00*62
$GPGGA,054447.70,3724.4028,N,12706.1156,E,1,11,0.85,93.31,M,22.179,M,,*5A
$GPRMC,054447.70,A,3724.4028,N,12706.1156,E,0.0039,59.286,210325,-8.5,W*6B
$GPGSA,A,3,1,2,3,8,17,22,30,,,,,,1.8,0.8,1.6*39
$GPGBS,054447.70,8.115,9.794,6.128,,,,*43
$GPZDA,054447.80,21,03,2025,00,00*6D
$GPGGA,054447.80,3724.4028,N,12706.1156,E,1,11,0.85,93.31,M,22.179,M,,*55
$GPRMC,054447.80,A,3724.4028,N,12706.1156,E,0.0039,59.286,210325,-8.5,W*64
$GPGSA,A,3,1,2,3,8,17,22,30,,,,,,1.8,0.8,1.6*39
$GPGBS,054447.80,8.115,9.794,6.128,,,,*4C
$GPZDA,054447.90,21,03,2025,00,00*6C
$GPGGA,054447.90,3724.4028,N,12706.1156,E,1,11,0.85,93.31,M,22.179,M,,*54
$GPRMC,054447.90,A,3724.4028,N,12706.1156,E,0.0039,59.286,210325,-8.5,W*65
$GPGSA,A,3,1,2,3,8,17,22,30,,,,,,1.8,0.8,1.6*39
$GPGBS,054447.90,8.115,9.794,6.128,,,,*4D
$GPZDA,054448.00,21,03,2025,00,00*6A
$GPGGA,054448.00,3724.4028,N,12706.1156,E,1,11,0.85,93.31,M,22.179,M,,*52
$GPRMC,054448.00,A,3724.4028,N,12706.1156,E,0.0039,59.286,210325,-8.5,W*63
$GPGSA,A,3,1,2,3,8,17,22,30,,,,,,1.8,0.8,1.6*39
$GPGBS,054448.00,8.115,9.794,6.128,,,,*4B
$GPZDA,054448.10,21,03,2025,00,00*6B
$GPGGA,054448.10,3724.4028,N,12706.1156,E,1,11,0.85,93.31,M,22.179,M,,*53
$GPRMC,054448.10,A,3724.4028,N,12706.1156,E,0.0039,59.286,210325,-8.5,W*62
$GPGSA,A,3,1,2,3,8,17,22,30,,,,,,1.8,0.8,1.6*39
$GPGBS,054448.10,8.115,9.794,6.128,,,,*4A
